{
  "Parkings": {
    "Parking": [
      {
        "id": "OBJ001",
        "active": "oui",
        "nom": "MASSENA",
        "capa": "325",
        "place": "1",
        "message": "1",
        "eventinfo": "OK",
        "eventdate": "07/11/2017 14:18:58",
        "latitude": "43.69770086",
        "longitude": "7.26985643",
        "streetAddress": "18 Avenue Félix Faure",
        "postalCode": "06000",
        "locality": "Nice"
      },
      {
        "id": "OBJ002",
        "active": "oui",
        "nom": "CORVESY",
        "capa": "327",
        "place": "8",
        "message": "8",
        "eventinfo": "OK",
        "eventdate": "07/11/2017 14:18:58",
        "latitude": "43.69654415",
        "longitude": "7.27213",
        "streetAddress": "3 Rue Alexandre Mari",
        "postalCode": "06000",
        "locality": "Nice"
      },
      {
        "id": "OBJ003",
        "active": "oui",
        "nom": "SALEYA",
        "capa": "360",
        "place": "71",
        "message": "71",
        "eventinfo": "OK",
        "eventdate": "07/11/2017 14:18:59",
        "latitude": "43.69573495",
        "longitude": "7.27374683",
        "streetAddress": "Cours Saleya",
        "postalCode": "06000",
        "locality": "Nice"
      },
      {
        "id": "OBJ004",
        "active": "oui",
        "nom": "PALAIS DE JUSTICE",
        "capa": "265",
        "place": "14",
        "message": "14",
        "eventinfo": "OK",
        "eventdate": "07/11/2017 14:18:59",
        "latitude": "43.69631646",
        "longitude": "7.27402474",
        "streetAddress": "Place du Palais de Justice",
        "postalCode": "06000",
        "locality": "Nice"
      },
      {
        "id": "OBJ005",
        "active": "oui",
        "nom": "LES ARTS",
        "capa": "322",
        "place": "4",
        "message": "4",
        "eventinfo": "OK",
        "eventdate": "07/11/2017 14:19:00",
        "latitude": "43.70087911",
        "longitude": "7.27810532",
        "streetAddress": "18 Avenue Saint-Jean-Baptiste",
        "postalCode": "06000",
        "locality": "Nice"
      },
      {
        "id": "OBJ006",
        "active": "oui",
        "nom": "PALAIS MASSENA",
        "capa": "227",
        "place": "0",
        "message": "OUVERT",
        "eventinfo": "OK",
        "eventdate": "07/11/2017 14:19:01",
        "latitude": "43.69519501",
        "longitude": "7.25996345",
        "streetAddress": "29 Prom. des Anglais",
        "postalCode": "06000",
        "locality": "Nice"
      },
      {
        "id": "OBJ007",
        "active": "oui",
        "nom": "MOZART",
        "capa": "468",
        "place": "0",
        "message": "OUVERT",
        "eventinfo": "OK",
        "eventdate": "07/11/2017 14:18:00",
        "latitude": "43.70053547",
        "longitude": "7.26190962",
        "streetAddress": "11 Avenue Auber",
        "postalCode": "06000",
        "locality": "Nice"
      },
      {
        "id": "OBJ008",
        "active": "oui",
        "nom": "LOUVRE",
        "capa": "324",
        "place": "0",
        "message": "OUVERT",
        "eventinfo": "OK",
        "eventdate": "07/11/2017 14:19:06",
        "latitude": "43.69992958",
        "longitude": "7.26445177",
        "streetAddress": "20 Boulevard Victor Hugo",
        "postalCode": "06000",
        "locality": "Nice"
      },
      {
        "id": "OBJ009",
        "active": "oui",
        "nom": "PALAIS MEDITERANNEE",
        "capa": "471",
        "place": "0",
        "message": "OUVERT",
        "eventinfo": "OK",
        "eventdate": "07/11/2017 14:19:07",
        "latitude": "43.69556265",
        "longitude": "7.26287123",
        "streetAddress": "63 Rue de France",
        "postalCode": "06000",
        "locality": "Nice"
      },
      {
        "id": "OBJ010",
        "active": "oui",
        "nom": "GRIMALDI",
        "capa": "300",
        "place": "0",
        "message": "OUVERT",
        "eventinfo": "OK",
        "eventdate": "07/11/2017 14:19:07",
        "latitude": "43.69801298",
        "longitude": "7.26441619",
        "streetAddress": "11 Rue Maccarani",
        "postalCode": "06000",
        "locality": "Nice"
      },
      {
        "id": "OBJ011",
        "active": "oui",
        "nom": "RUHL-MERIDIEN",
        "capa": "420",
        "place": "0",
        "message": "COMPLET",
        "eventinfo": "OK",
        "eventdate": "07/11/2017 14:19:13",
        "latitude": "43.6956485",
        "longitude": "7.26596991",
        "streetAddress": "1 Prom. des Anglais",
        "postalCode": "06000",
        "locality": "Nice"
      },
      {
        "id": "OBJ012",
        "active": "oui",
        "nom": "NICE ETOILE",
        "capa": "1161",
        "place": "394",
        "message": "...",
        "eventinfo": "NK",
        "eventdate": "07/11/2017 14:19:19",
        "latitude": "43.70099682",
        "longitude": "7.26843645",
        "streetAddress": "Rue Lamartine",
        "postalCode": "06000",
        "locality": "Nice"
      },
      {
        "id": "OBJ013",
        "active": "oui",
        "nom": "SULZER",
        "capa": "1161",
        "place": "73",
        "message": "73",
        "eventinfo": "OK",
        "eventdate": "07/11/2017 14:19:17",
        "latitude": "43.69536681",
        "longitude": "7.27109925",
        "streetAddress": "103 Quai des États-Unis",
        "postalCode": "06300",
        "locality": "Nice"
      }
    ],
    "updated": "2017-11-07T13:19:20.3174434Z"
  }
}